[
    {
       "restaurantName":"Bronco",
       "address":"39 Rue des Petites Écuries, 75010 Paris",
       "lat":48.8737815,
       "long":2.3501649,
       "ratings":[
          {
             "stars":4,
             "comment":"Un excellent restaurant, j'y reviendrai ! Par contre il vaut mieux aimer la viande."
          },
          {
             "stars":5,
             "comment":"Tout simplement mon restaurant préféré !"
          }
       ]
    },
    {
       "restaurantName":"Babalou",
       "address":"4 Rue Lamarck, 75018 Paris",
       "lat":48.8865035,
       "long":2.3442197,
       "ratings":[
          {
             "stars":5,
             "comment":"Une minuscule pizzeria délicieuse cachée juste à côté du Sacré choeur !"
          },
          {
             "stars":3,
             "comment":"J'ai trouvé ça correct, sans plus"
          }
       ]
    },
    {
      "restaurantName":"Mic Mac Do",
      "address":"21 Avenue Jacques Duclos, 63910 Vertaizon",
      "lat":45.785990,
      "long":3.286506,
      "ratings":[
         {
            "stars":2,
            "comment":"Dommage qu'à 14h20 il ait fallu attendre + 10mn pour 3 hamburgers..... au drive.!!"
         },
         {
            "stars":3,
            "comment":"Hamburger régulièrement mis en vrac dans sa boîte."
         }
      ]
   },
   {
      "restaurantName":"La Grange",
      "address":"Chemin de la Lissandre, 63430 Pont-du-Château",
      "lat":45.793352,
      "long":3.229127,
      "ratings":[
         {
            "stars":5,
            "comment":"Super resto convivial et assiette très copieuse...un delice"
         },
         {
            "stars":4,
            "comment":"Carte variée avec notamment pizzas et burgers."
         },
         {
            "stars":5,
            "comment":"Menu du jour , entrée plat et dessert à 12,5 euros."
         }
      ]
   },
   {
      "restaurantName":"Chez la mère à Titi",
      "address":"Rue du Pont, 63430 Pont-du-Château",
      "lat":45.803352,
      "long":3.239127,
      "ratings":[
      ]
   }
 ]